City,Lat,Lng,Max Temp,Humidity,Cloudiness,Wind Speed,Country,Date
Reconquista,-29.15,-59.65,61.18,65,8,5.5,AR,1650113543
Butaritari,3.0707,172.7902,80.56,79,66,12.62,KI,1650113543
Acarí,-15.4311,-74.6158,68.83,76,100,4.03,PE,1650113543
São Joaquim do Monte,-8.4325,-35.8044,84.34,57,36,7.16,BR,1650113543
Kiryat Gat,31.61,34.7642,80.4,22,6,11.27,IL,1650113544
Sørland,67.667,12.6934,42.84,92,92,13.42,NO,1650113544
Albany,42.6001,-73.9662,55.58,60,100,5.23,US,1650113535
Alamosa,37.4695,-105.87,39.06,35,60,7.67,US,1650113544
Berlevåg,70.8578,29.0864,35.4,70,100,21.74,NO,1650113544
Abnūb,27.2696,31.1511,95.22,7,0,6.38,EG,1650113544
Ushuaia,-54.8,-68.3,40.66,65,75,17.27,AR,1650113311
Bethel,41.3712,-73.414,57.63,52,100,4.61,US,1650113544
Bluff,-46.6,168.3333,52.81,60,89,9.19,NZ,1650113544
Nikolskoye,59.7035,30.7861,42.87,56,10,9.4,RU,1650113545
Busselton,-33.65,115.3333,61.47,68,39,10.04,AU,1650113545
Ranong,9.9658,98.6348,82.33,75,75,2.53,TH,1650113545
Ennis,52.8436,-8.9864,58.93,58,75,14.97,IE,1650113402
Copiapó,-27.3667,-70.3333,62.53,59,0,1.3,CL,1650113261
Nanortalik,60.1432,-45.2371,30.92,76,4,12.3,GL,1650113545
São Filipe,14.8961,-24.4956,72.39,73,1,10.09,CV,1650113545
Bubaque,11.2833,-15.8333,76.1,57,11,4.54,GW,1650113545
Upernavik,72.7868,-56.1549,-12.48,96,65,14.34,GL,1650113545
Rikitea,-23.1203,-134.9692,76.59,76,47,14.54,PF,1650113545
Ulladulla,-35.35,150.4667,61.7,93,2,4.54,AU,1650113546
Mar del Plata,-38.0023,-57.5575,61.09,100,100,8.05,AR,1650113460
Vostok,46.4856,135.8833,33.15,95,100,4.5,RU,1650113546
Sassandra,4.95,-6.0833,82.8,74,100,8.16,CI,1650113546
Simbahan,6.3032,120.5836,82.74,76,17,7.4,PH,1650113546
Ribeira Grande,38.5167,-28.7,61.2,72,75,8.05,PT,1650113546
Tuktoyaktuk,69.4541,-133.0374,-18.4,76,20,4.61,CA,1650113546
Hay River,60.8156,-115.7999,8.58,72,40,12.66,CA,1650113546
Saint Paul Harbor,57.79,-152.4072,38.71,87,100,17.27,US,1650113547
Saint-Philippe,-21.3585,55.7679,81.21,80,53,13.78,RE,1650113547
Newton,42.337,-71.2092,60.39,37,0,14.97,US,1650113547
Gushikawa,26.3544,127.8686,67.23,68,75,10.36,JP,1650113547
Tura,25.5198,90.2201,73.62,69,0,13.76,IN,1650113547
Avarua,-21.2078,-159.775,75.25,94,28,1.14,CK,1650113547
Hithadhoo,-0.6,73.0833,83.75,64,100,2.48,MV,1650113547
Kapaa,22.0752,-159.319,75.18,84,40,18.41,US,1650113467
San Policarpo,12.1791,125.5072,80.6,78,5,2.42,PH,1650113547
Dunda,-8.1167,34.25,81.12,53,97,2.55,TZ,1650113547
Khatanga,71.9667,102.5,21.97,97,99,3.09,RU,1650113548
Tiksi,71.6872,128.8694,-9.92,100,93,4.56,RU,1650113470
Ponta do Sol,32.6667,-17.1,73.13,34,100,7.16,PT,1650113548
Barrow,71.2906,-156.7887,-0.38,71,0,21.85,US,1650113368
Kozel'sk,54.0375,35.7716,36.21,97,100,10.56,RU,1650113548
Port Alfred,-33.5906,26.891,64.18,74,100,5.01,ZA,1650113548
Magadan,59.5667,150.8,13.53,82,12,5.93,RU,1650113460
Igrim,63.1906,64.4162,31.01,79,100,7.29,RU,1650113549
Hermanus,-34.4187,19.2345,69.8,54,3,22.17,ZA,1650113549
Atuona,-9.8,-139.0333,78.8,78,16,16.37,PF,1650113549
Port Lincoln,-34.7333,135.8667,69.73,64,32,3.78,AU,1650113549
Marabu,4.4148,114.0089,82.54,83,20,2.3,MY,1650113549
Dunedin,-45.8742,170.5036,52.81,68,24,8.01,NZ,1650113549
Dire Dawa,9.5931,41.8661,86.54,34,93,3.4,ET,1650113390
Jamestown,42.097,-79.2353,42.53,97,100,11.5,US,1650113550
Mataura,-46.1927,168.8643,52.48,88,94,2.37,NZ,1650113550
Pangody,65.85,74.4859,21.22,93,100,16.69,RU,1650113550
Castro,-24.7911,-50.0119,59.04,71,11,6.46,BR,1650113550
Puerto Ayora,-0.7393,-90.3518,75.49,88,83,5.03,EC,1650113550
Jalu,29.0331,21.5482,109.45,5,12,27.11,LY,1650113550
Kaniama,-7.5667,24.1833,79.23,69,70,2.39,CD,1650113550
Norman Wells,65.282,-126.8329,-18.36,69,0,0.0,CA,1650113550
Milyutinskaya,48.6279,41.6679,63.12,52,99,13.76,RU,1650113550
Mahébourg,-20.4081,57.7,82.69,65,40,13.8,MU,1650113551
Belaya Gora,68.5333,146.4167,2.55,98,100,3.91,RU,1650113551
Fairbanks,64.8378,-147.7164,21.54,52,0,11.5,US,1650113537
Bełchatów,51.3688,19.3567,51.06,41,74,16.28,PL,1650113551
George Town,5.4112,100.3354,85.98,78,20,7.0,MY,1650113551
Punta Arenas,-53.15,-70.9167,41.11,81,75,9.22,CL,1650113551
Vestmannaeyjar,63.4427,-20.2734,47.39,100,100,13.8,IS,1650113551
Djibouti,11.5,42.5,90.5,35,6,13.38,DJ,1650113551
Caravelas,-17.7125,-39.2481,78.67,71,100,11.1,BR,1650113552
Pozo Colorado,-23.4923,-58.7972,66.33,52,73,4.99,PY,1650113552
Vaini,-21.2,-175.2,75.36,94,20,3.44,TO,1650113552
Kasongo-Lunda,-6.4667,16.8167,87.87,53,71,1.68,CD,1650113552
Lompoc,34.6391,-120.4579,51.93,88,100,6.91,US,1650113552
New Norfolk,-42.7826,147.0587,53.71,73,75,2.8,AU,1650113552
Saint George,37.1041,-113.5841,57.79,31,0,1.01,US,1650113552
Ukiah,39.1502,-123.2078,51.66,94,100,5.75,US,1650113552
Margate,51.3813,1.3862,63.1,78,0,1.99,GB,1650112994
Jeremoabo,-10.075,-38.4808,93.9,37,1,4.68,BR,1650113553
Ebeltoft,56.1944,10.6821,55.42,41,3,4.61,DK,1650113553
Cabo San Lucas,22.8909,-109.9124,77.31,17,20,10.36,MX,1650113553
Hobart,-42.8794,147.3294,54.05,88,0,4.61,AU,1650113553
Cap-aux-Meules,47.3821,-61.8597,39.25,93,75,14.97,CA,1650113553
Katherine,-14.4667,132.2667,82.72,57,91,6.91,AU,1650113553
Katobu,-4.9408,122.5276,76.48,93,10,4.09,ID,1650113553
Virginia Beach,36.8529,-75.978,59.02,76,100,1.01,US,1650113553
Tabas,33.5959,56.9244,89.85,12,3,8.03,IR,1650113554
Kaohsiung City,22.6163,120.3133,77.04,70,75,6.91,TW,1650113554
Tete,-16.1564,33.5867,91.49,55,40,5.75,MZ,1650113554
Port Victoria,0.0939,33.9756,73.85,72,100,13.51,KE,1650113554
Alofi,-19.0595,-169.9187,71.49,100,77,1.14,NU,1650113554
Hambantota,6.1241,81.1185,82.74,94,75,4.61,LK,1650113554
Pueblo Nuevo,23.3833,-105.3833,52.88,22,100,5.55,MX,1650113554
Lebu,-37.6167,-73.65,53.55,82,0,10.92,CL,1650113554
La Ronge,55.1001,-105.2842,14.25,73,75,2.3,CA,1650113555
Vargashi,55.3556,65.8467,50.18,54,95,14.32,RU,1650113555
Moindou,-21.6924,165.677,73.27,82,0,4.85,NC,1650113555
Lüderitz,-26.6481,15.1594,73.26,48,0,13.42,NA,1650113555
Kaitangata,-46.2817,169.8464,50.18,68,100,6.93,NZ,1650113555
Malkara,40.89,26.9011,68.58,42,100,1.1,TR,1650113555
Solbjerg,56.0427,10.0863,55.02,58,9,1.99,DK,1650113555
Bambous Virieux,-20.3428,57.7575,82.65,65,40,13.8,MU,1650113555
East London,-33.0153,27.9116,65.34,68,20,6.91,ZA,1650113555
Norsup,-16.0667,167.3833,79.86,80,100,0.76,VU,1650113556
Bredasdorp,-34.5322,20.0403,65.59,50,36,17.67,ZA,1650113556
Santo Domingo,18.5001,-69.9886,79.03,84,40,5.01,DO,1650113556
Umeå,63.8284,20.2597,40.93,60,0,8.05,SE,1650113450
Saskylakh,71.9167,114.0833,9.91,94,100,12.15,RU,1650113556
Ust'-Ilimsk,58.0006,102.6619,37.29,95,100,4.94,RU,1650113556
Xai-Xai,-25.0519,33.6442,73.2,89,100,14.7,MZ,1650113556
Chokurdakh,70.6333,147.9167,-9.81,100,98,2.77,RU,1650113558
Genhe,50.7833,121.5167,24.49,60,3,3.15,CN,1650113558
Leningradskiy,69.3833,178.4167,-3.55,100,84,5.82,RU,1650113558
Puerto Escondido,15.85,-97.0667,77.83,78,0,2.3,MX,1650113558
Tasiilaq,65.6145,-37.6368,36.64,96,100,13.24,GL,1650113558
Kahului,20.8947,-156.47,73.85,87,20,14.97,US,1650113558
Usogorsk,63.4106,48.6872,32.47,67,100,8.48,RU,1650113558
Bengkulu,-3.8004,102.2655,80.19,80,95,1.48,ID,1650113559
Pauini,-7.7136,-66.9764,75.74,94,100,1.63,BR,1650113559
Port Elizabeth,-33.918,25.5701,66.49,59,20,11.5,ZA,1650113469
Cidreira,-30.1811,-50.2056,66.43,65,99,7.96,BR,1650113559
Longyearbyen,78.2186,15.6401,28.24,86,100,14.97,SJ,1650113517
Vila Velha,-20.3297,-40.2925,76.95,58,0,15.01,BR,1650113559
Dalvik,65.9702,-18.5286,49.93,76,100,13.31,IS,1650113559
Ridgecrest,35.6225,-117.6709,60.66,44,0,13.8,US,1650113559
Qaanaaq,77.484,-69.3632,-10.95,83,100,7.61,GL,1650113559
Faya,18.3851,42.4509,77.52,28,28,11.5,SA,1650113560
Solnechnyy,50.7214,136.6319,31.62,98,100,4.72,RU,1650113560
Huicungo,-7.2833,-76.8,71.33,94,99,0.74,PE,1650113560
Cape Town,-33.9258,18.4232,76.1,33,0,14.97,ZA,1650113458
Iqaluit,63.7506,-68.5145,-5.31,83,75,0.0,CA,1650113536
Vermilion,40.1667,-87.7506,41.56,63,0,11.99,US,1650113560
Paamiut,61.994,-49.6678,26.31,72,5,14.88,GL,1650113560
Yellowknife,62.456,-114.3525,0.41,84,75,8.05,CA,1650113561
Mikuni,36.2171,136.1519,46.31,64,1,9.75,JP,1650113561
Raudeberg,61.9875,5.1352,50.95,81,100,22.28,NO,1650113561
Torbay,47.6666,-52.7314,39.27,93,100,28.77,CA,1650113561
Fortuna,40.5982,-124.1573,42.66,96,100,6.91,US,1650113561
Pombia,45.653,8.6336,78.31,31,0,8.01,IT,1650113338
Grand Gaube,-20.0064,57.6608,82.8,75,8,11.99,MU,1650113561
Chunskiy,56.0815,99.6342,36.48,97,100,2.98,RU,1650113561
Rāmhormoz,31.28,49.6035,91.36,9,44,13.53,IR,1650113384
Lethem,3.3803,-59.7968,82.6,63,100,10.42,GY,1650113562
Gigmoto,13.7796,124.39,78.67,80,8,4.56,PH,1650113562
Geraldton,-28.7667,114.6,72.01,73,75,14.97,AU,1650113562
Doha,25.2867,51.5333,100.71,22,100,11.5,QA,1650113293
Nampula,-15.1165,39.2666,75.15,94,100,16.11,MZ,1650113562
Gambiran,-6.7988,111.4951,78.28,86,66,2.21,ID,1650113562
Vestmanna,62.1564,-7.1664,45.52,100,100,10.36,FO,1650113562
Faanui,-16.4833,-151.75,81.45,71,0,16.75,PF,1650113562
Ostrovnoy,68.0531,39.5131,33.6,99,100,13.13,RU,1650113563
Aklavik,68.2191,-135.0107,-17.63,100,11,6.31,CA,1650113563
Lebrija,36.9208,-6.0753,81.28,47,0,9.22,ES,1650113563
Nānākuli,21.3906,-158.1547,75.15,73,40,3.44,US,1650113563
Airai,-8.9266,125.4092,61.47,96,93,2.13,TL,1650113563
Sapele,5.8941,5.6767,91.45,52,87,4.94,NG,1650113563
Bachaquero,9.9694,-71.1494,82.76,72,41,8.95,VE,1650113563
Vyshkovo,48.0491,23.4211,57.09,77,100,7.61,UA,1650113564
Provideniya,64.3833,-173.3,29.7,96,100,14.76,RU,1650113564
Siilinjärvi,63.0833,27.6667,42.82,33,0,5.75,FI,1650113564
Pombas,17.1503,-25.0201,68.61,70,23,11.45,CV,1650113564
Carnarvon,-24.8667,113.6333,78.87,73,75,12.66,AU,1650113564
Les Escoumins,48.1111,-69.0236,34.95,71,10,16.4,CA,1650113564
Tuatapere,-46.1333,167.6833,45.66,79,78,2.59,NZ,1650113564
Alindao,5.0267,21.2088,95.52,36,32,4.38,CF,1650113564
Agropoli,40.3469,14.9966,75.09,50,100,6.26,IT,1650113564
Lima,-12.0432,-77.0282,61.05,94,75,3.44,PE,1650113511
Chui,-33.6971,-53.4616,65.5,60,100,5.35,UY,1650113565
Zeya,53.75,127.2667,32.22,85,100,7.49,RU,1650113565
Bukama,-9.2,25.85,81.12,75,86,3.24,CD,1650113565
Severo-Kuril'sk,50.6789,156.125,29.26,88,100,9.08,RU,1650113565
Umluj,25.0213,37.2685,81.66,53,0,8.12,SA,1650113565
Kavieng,-2.5744,150.7967,82.24,79,80,9.26,PG,1650113565
Lavrentiya,65.5833,-171.0,24.58,96,100,11.95,RU,1650113565
Arraial do Cabo,-22.9661,-42.0278,78.66,65,75,14.97,BR,1650113565
Deputatsky,69.3,139.9,-2.47,97,100,2.53,RU,1650113566
Guerrero Negro,27.9769,-114.0611,57.51,90,100,11.61,MX,1650113566
Kargasok,59.0556,80.8572,53.13,69,100,11.74,RU,1650113566
Pevek,69.7008,170.3133,1.72,98,100,4.47,RU,1650113566
Teknāf,20.8624,92.3058,80.91,84,3,3.69,BD,1650113566
Maceió,-9.6658,-35.7353,85.44,70,75,10.36,BR,1650113566
Kamiiso,41.8167,140.65,39.61,74,0,6.35,JP,1650113566
Pontianak,-0.0333,109.3333,76.98,94,40,3.44,ID,1650113567
Rocha,-34.4833,-54.3333,60.98,74,100,1.41,UY,1650113567
Wanning,18.8003,110.3967,75.94,89,3,6.35,CN,1650113567
Canutama,-6.5339,-64.3831,75.85,95,100,2.62,BR,1650113567
Pangai,-19.8,-174.35,78.91,83,40,9.22,TO,1650113567
Irati,-25.4672,-50.6511,60.96,60,0,2.08,BR,1650113567
Saint-Pierre,-21.3393,55.4781,81.28,70,75,19.57,RE,1650113567
Camacupa,-12.0167,17.4833,78.57,53,31,2.35,AO,1650113567
Dikson,73.5069,80.5464,15.87,93,100,16.78,RU,1650113568
Berea,41.3662,-81.8543,45.95,93,100,8.05,US,1650113568
Nizhniy Ingash,56.2,96.53,41.59,93,99,4.23,RU,1650113568
Mattru,7.6244,-11.8332,98.24,37,16,1.86,SL,1650113568
Hilo,19.7297,-155.09,75.27,97,100,6.91,US,1650113568
Fernie,49.5,-115.0687,16.0,91,5,4.45,CA,1650113568
Babu,24.4167,111.5167,54.52,95,100,6.8,CN,1650113568
Cabedelo,-6.9811,-34.8339,84.87,72,48,10.78,BR,1650113569
Inhambane,-23.865,35.3833,80.58,78,75,4.61,MZ,1650113569
Katsuura,35.1333,140.3,54.16,73,99,11.12,JP,1650113569
Krasnosel'kup,65.7,82.4667,35.46,100,100,6.13,RU,1650113569
Bousso,10.4795,16.7117,101.95,24,26,3.98,TD,1650113569
Sitka,57.0531,-135.33,33.69,75,40,4.61,US,1650113569
Sioux Lookout,50.1001,-91.917,14.07,79,100,8.05,CA,1650113570
Laas,46.6166,10.7002,63.7,60,14,7.76,IT,1650113570
Glenwood Springs,39.5505,-107.3248,45.63,47,100,16.11,US,1650113570
Matara,5.9485,80.5353,80.8,85,46,5.82,LK,1650113570
Dolzhanskaya,46.6311,37.8039,50.36,82,46,9.82,RU,1650113570
Iaciara,-14.0958,-46.6317,77.79,76,58,5.37,BR,1650113570
Talnakh,69.4865,88.3972,27.21,95,100,3.24,RU,1650113570
Sept-Îles,50.2001,-66.3821,34.32,97,100,10.36,CA,1650113570
Dwārka,22.2394,68.9678,83.08,71,0,16.2,IN,1650113570
Grand-Santi,4.25,-54.3833,79.99,79,52,5.28,GF,1650113571
Kulhudhuffushi,6.6221,73.07,85.14,71,20,10.04,MV,1650113571
Bacolod City,10.6667,122.95,79.88,81,50,5.99,PH,1650113571
Burgeo,47.6167,-57.6152,39.63,85,26,11.74,CA,1650113571
Port Hedland,-20.3167,118.5667,80.65,69,9,6.91,AU,1650113571
Constitución,-35.3333,-72.4167,56.37,69,0,3.51,CL,1650113571
Sonāmukhi,23.3,87.4167,95.27,16,79,2.95,IN,1650113571
Kilindoni,-7.9139,39.6668,82.49,78,100,14.41,TZ,1650113571
Deder,9.3167,41.45,62.82,75,96,2.21,ET,1650113572
Ginir,7.1333,40.7,72.7,51,100,5.17,ET,1650113572
Ketchikan,55.3422,-131.6461,33.78,80,0,0.0,US,1650113572
Yartsevo,55.0667,32.6964,38.66,88,100,12.37,RU,1650113572
Aykhal,66.0,111.5,24.42,95,100,12.59,RU,1650113360
Terrace,54.5163,-128.6035,26.51,74,0,5.75,CA,1650113572
Beyneu,45.3167,55.2,66.31,28,7,7.94,KZ,1650113572
Aswān,24.0934,32.907,101.5,6,0,9.22,EG,1650113572
Okhotsk,59.3833,143.3,15.8,90,25,4.41,RU,1650113572
Husavik,66.0449,-17.3389,45.3,78,100,14.88,IS,1650113573
Cherskiy,68.75,161.3,13.26,98,100,9.75,RU,1650113573
Campamento,14.55,-86.65,72.18,77,99,2.73,HN,1650113573
Yar-Sale,66.8333,70.8333,18.41,89,100,15.9,RU,1650113573
Usinsk,65.9939,57.5281,23.02,73,100,14.16,RU,1650113573
Bintulu,3.1667,113.0333,81.01,94,20,0.0,MY,1650113573
Niğde,37.8333,34.75,58.87,25,73,3.29,TR,1650113424
Bafoulabé,13.8065,-10.8321,105.01,17,82,2.57,ML,1650113574
Lensk,60.7253,114.9278,22.64,93,100,4.16,RU,1650113574
Gillette,44.2911,-105.5022,16.95,86,11,5.99,US,1650113574
Nsanje,-16.92,35.262,90.66,46,5,9.01,MW,1650113574
Upata,8.0086,-62.3989,80.33,59,100,8.97,VE,1650113574
Hong Kong,22.2855,114.1577,73.18,74,98,17.0,HK,1650113480
Liberal,37.0431,-100.921,31.24,64,40,11.5,US,1650113574
Mopti,14.6667,-4.0,96.84,7,88,18.41,ML,1650113574
Paita,-5.0892,-81.1144,68.05,81,95,11.36,PE,1650113574
Taoudenni,22.6783,-3.9836,91.38,11,0,13.53,ML,1650113575
Kiruna,67.8557,20.2251,43.72,57,47,6.91,SE,1650113575
Tabuk,17.4189,121.4443,74.16,89,100,5.95,PH,1650113575
Ambilobe,-13.2,49.05,85.42,66,44,4.83,MG,1650113575
Pak Phanang,8.3511,100.202,86.02,74,33,3.83,TH,1650113575
Challans,46.8436,-1.8749,70.0,60,5,10.22,FR,1650113575
Flagstaff,35.1981,-111.6513,46.06,35,0,3.0,US,1650113575
Thompson,55.7435,-97.8558,-0.24,78,40,6.91,CA,1650113575
Hīt,33.6416,42.8251,83.01,10,0,15.41,IQ,1650113576
Noshiro,40.2039,140.0242,43.12,66,0,5.64,JP,1650113576
Mossamedes,-15.1961,12.1522,79.43,65,0,14.97,AO,1650113576
Fare,-16.7,-151.0167,81.12,72,2,16.8,PF,1650113576
Shādegān,30.6497,48.6647,93.15,5,31,14.43,IR,1650113546
Pangnirtung,66.1451,-65.7125,6.33,79,3,1.79,CA,1650113576
Cassilândia,-19.1133,-51.7342,71.38,54,0,7.72,BR,1650113547
Kawalu,-7.3817,108.2082,74.12,96,93,0.54,ID,1650113577
Aksarka,66.5606,67.7975,21.58,90,100,5.86,RU,1650113577
Rondonópolis,-16.4708,-54.6356,79.03,70,8,4.14,BR,1650113426
Arua,3.0201,30.9111,66.47,85,100,7.49,UG,1650113577
Port Blair,11.6667,92.75,86.04,70,40,5.75,IN,1650113577
Zhangjiakou Shi Xuanhua Qu,40.6103,115.0447,59.36,14,100,0.51,CN,1650113577
Nador,35.174,-2.9287,77.07,38,0,5.75,MA,1650113577
Buñol,39.4167,-0.7833,77.56,30,1,1.66,ES,1650113578
Sobolevo,54.4299,31.8996,39.65,81,100,14.16,RU,1650113578
Bandarbeyla,9.4942,50.8122,86.09,65,96,16.06,SO,1650113578
Codrington,-38.2667,141.9667,60.21,73,100,6.82,AU,1650113578
Misratah,32.3754,15.0925,65.73,69,100,19.33,LY,1650113578
Anadyr,64.75,177.4833,30.7,80,20,17.9,RU,1650113578
Santa Cruz de la Sierra,-17.8,-63.1667,69.85,52,75,12.66,BO,1650113578
Qui Nhon,13.7667,109.2333,77.77,89,56,3.22,VN,1650113579
Laguna,38.421,-121.4238,55.9,89,100,11.5,US,1650113579
Ayorou,14.7308,0.9174,99.46,22,100,10.33,NE,1650113579
Orodara,10.9492,-4.9342,83.14,52,100,2.06,BF,1650113579
Hibbing,47.4272,-92.9377,17.2,73,100,13.8,US,1650113579
Bullhead City,35.1478,-114.5683,71.02,28,0,7.0,US,1650113579
Roebourne,-20.7833,117.1333,85.95,46,14,6.33,AU,1650113580
Tlacolula,16.9542,-96.4792,64.71,69,10,2.71,MX,1650113580
Belmonte,-15.8631,-38.8828,75.76,93,100,11.77,BR,1650113580
Esperance,-33.8667,121.9,64.24,78,100,13.56,AU,1650113580
Salalah,17.0151,54.0924,85.87,58,0,9.33,OM,1650113580
Dingle,10.9995,122.6711,77.59,87,50,4.92,PH,1650113580
Jaisinghnagar,23.7,81.3833,94.03,11,1,5.95,IN,1650113580
Arlit,18.7369,7.3853,93.87,8,100,15.61,NE,1650113580
Liku,-0.7275,119.8922,75.94,95,100,3.18,ID,1650113581
Ende,-8.8432,121.6623,79.77,87,68,3.36,ID,1650113581
Bystrogorskiy,48.2081,41.141,59.79,57,100,9.93,RU,1650113581
Itarema,-2.9248,-39.9167,84.34,70,89,6.06,BR,1650113581
Chegdomyn,51.1167,133.0167,28.87,97,100,2.13,RU,1650113581
Asău,46.4333,26.4,58.28,81,100,2.95,RO,1650113582
Narsaq,60.9167,-46.05,33.85,59,0,3.29,GL,1650113582
Prince Rupert,54.3161,-130.3201,38.89,80,0,8.05,CA,1650113582
Kohtla-Järve,59.3986,27.2731,35.96,71,11,8.5,EE,1650113582
Biak,-0.9131,122.8766,77.56,86,95,3.18,ID,1650113582
Merauke,-8.4667,140.3333,79.7,85,100,11.27,ID,1650113583
Shalinskoye,55.7228,93.7594,46.0,81,54,6.42,RU,1650113583
São Mateus do Maranhão,-4.0417,-44.475,81.84,83,29,1.79,BR,1650113583
Boca do Acre,-8.7522,-67.3978,77.88,78,85,3.8,BR,1650113432
Naviraí,-23.065,-54.1906,64.67,58,0,5.14,BR,1650113583
Sambava,-14.2667,50.1667,81.73,73,15,13.42,MG,1650113583
Tigre,-34.426,-58.5796,69.28,76,0,5.75,AR,1650113583
Castlegar,49.2998,-117.6689,26.98,93,46,3.89,CA,1650113583
Trairi,-3.2778,-39.2689,81.14,84,100,5.08,BR,1650113584
Paris,48.8534,2.3488,69.37,46,0,11.5,FR,1650113485
Gazojak,41.1875,61.4036,73.27,29,100,19.66,TM,1650113584
Clyde River,70.4692,-68.5914,-9.17,77,100,3.44,CA,1650113584
Weston,26.1004,-80.3998,80.02,80,1,8.99,US,1650113584
Kollam,8.8833,76.6,84.16,75,21,6.89,IN,1650113315
Pisco,-13.7,-76.2167,63.01,94,99,4.61,PE,1650113584
Kirakira,-10.4544,161.9205,80.71,82,71,6.33,SB,1650113585
Plettenberg Bay,-34.0527,23.3716,63.86,64,54,15.86,ZA,1650113585
Padang,-0.9492,100.3543,82.45,84,54,1.63,ID,1650113575
Salta,-24.7859,-65.4117,60.58,74,75,1.14,AR,1650113585
Shingū,33.7333,135.9833,47.39,63,7,8.32,JP,1650113585
Ambon City,-3.6954,128.1814,80.74,89,20,8.05,ID,1650113585
Coahuayana Viejo,18.7333,-103.6833,69.12,58,59,2.57,MX,1650113585
Dickinson,29.4608,-95.0513,76.05,92,100,9.22,US,1650113586
Papara,-3.9839,-38.7273,84.6,67,71,4.88,BR,1650113586
Yenagoa,4.9247,6.2642,90.88,53,81,5.37,NG,1650113456
Hokitika,-42.7167,170.9667,52.75,83,100,4.79,NZ,1650113586
Tulun,54.5611,100.5792,45.64,74,100,2.91,RU,1650113586
Klaksvík,62.2266,-6.589,47.32,94,83,16.58,FO,1650113319
Takoradze,4.8845,-1.7554,85.06,70,99,2.86,GH,1650113365
Kampot,10.6167,104.1833,82.45,75,16,4.43,KH,1650113586
Auki,-8.7676,160.7034,77.77,87,100,3.56,SB,1650113587
Zachepylivka,49.1939,35.2394,62.91,50,100,16.53,UA,1650113587
Champerico,14.3,-91.9167,75.74,72,78,9.06,GT,1650113587
Owando,-0.4819,15.8999,93.81,40,78,1.61,CG,1650113587
Shelburne,44.0787,-80.2041,31.91,62,2,8.7,CA,1650113588
Jardim,-21.4803,-56.1381,71.76,60,0,4.63,BR,1650113588
Hondomachi-hondo,32.45,130.2,57.74,57,100,8.72,JP,1650113588
Vanimo,-2.6741,141.3028,79.16,86,60,4.07,PG,1650113588
Bowen,-20.0167,148.2333,76.33,72,98,17.16,AU,1650113588
Zapolyarnyy,69.4154,30.8136,36.68,81,100,17.56,RU,1650113566
Tshikapa,-6.4167,20.8,87.4,57,100,2.24,CD,1650113589
Temba,-25.3803,28.2631,60.82,86,100,12.8,ZA,1650113589
Honningsvåg,70.9821,25.9704,38.95,70,100,18.41,NO,1650113589
Oodweyne,9.4092,45.064,92.35,21,100,9.42,SO,1650113589
Kristiansund,63.1115,7.732,55.45,43,1,6.91,NO,1650113589
Corn Island,12.1694,-83.0418,80.22,74,100,14.65,NI,1650113589
Dicabisagan,17.0818,122.4157,76.73,86,93,5.77,PH,1650113589
Aketi,2.7388,23.7833,88.36,48,100,5.77,CD,1650113590
Key West,24.5557,-81.7826,82.4,77,40,8.05,US,1650113501
Ilulissat,69.2167,-51.1,-1.71,79,2,1.59,GL,1650113590
Mahibadhoo,3.7833,72.9667,85.15,69,22,7.18,MV,1650113590
Kendal,54.3268,-2.7476,63.84,81,100,9.15,GB,1650113591
Jasło,49.7451,21.4725,46.9,69,100,12.91,PL,1650113591
Eyl,7.9803,49.8164,86.92,60,59,16.91,SO,1650113591
Henties Bay,-22.116,14.2845,63.63,73,3,10.69,NA,1650113591
Carbonia,39.1672,8.5222,79.75,41,0,10.85,IT,1650113591
Bereda,43.2686,-7.5406,79.41,52,100,1.97,ES,1650113591
Vao,-22.6667,167.4833,76.87,78,0,6.67,NC,1650113591
Comodoro Rivadavia,-45.8667,-67.5,48.06,57,0,4.61,AR,1650113332
Bāglung,28.2719,83.5898,72.95,23,92,4.76,NP,1650113592
Ipixuna,-1.7625,-48.8043,81.19,83,99,2.35,BR,1650113592
Senno,59.5336,33.9167,38.32,71,100,8.23,RU,1650113592
Bataiporã,-22.2953,-53.2711,67.19,64,0,7.65,BR,1650113592
Kamalpur,24.2,91.8333,69.98,92,100,14.41,IN,1650113592
Yabēlo,4.8833,38.0833,64.96,69,100,6.42,ET,1650113592
Batemans Bay,-35.7167,150.1833,64.09,93,2,4.27,AU,1650113592
Gizo Government Station,-8.103,156.8419,82.53,73,100,6.42,SB,1650113593
Camargo,27.6667,-105.1667,64.49,15,100,4.0,MX,1650113593
Aragarças,-15.8975,-52.2508,79.45,61,0,5.75,BR,1650113593
Wawa,9.9022,4.4192,90.32,45,99,5.86,NG,1650113593
Blythe,33.6103,-114.5964,68.04,31,27,8.32,US,1650113593
Talaya,61.3833,152.75,-2.16,100,99,2.13,RU,1650113593
San Severo,41.6897,15.376,67.6,60,3,14.94,IT,1650113593
Pimentel,-6.8367,-79.9342,62.89,88,100,11.5,PE,1650113594
Turukhansk,65.8167,87.9833,36.37,100,100,13.58,RU,1650113594
Loreto,22.2667,-101.9667,59.99,23,92,2.89,MX,1650113594
Moctezuma,29.8,-109.6667,62.22,11,100,1.5,MX,1650113594
Ruiru,-1.1606,36.9567,81.68,36,75,9.22,KE,1650113594
Sorong,-0.8833,131.25,82.58,82,70,13.15,ID,1650113594
Kamenka,51.3223,42.7678,58.44,59,100,12.84,RU,1650113594
Caracas,10.488,-66.8792,74.17,82,40,1.99,VE,1650113541
Vojens,55.2464,9.306,55.62,43,40,5.75,DK,1650113429
Bara,10.3744,10.7288,101.19,26,12,9.17,NG,1650113595
Fort Nelson,58.8053,-122.7002,13.59,73,100,9.22,CA,1650113595
Wheeling,42.1392,-87.929,35.35,66,3,5.01,US,1650113595
Cayenne,4.9333,-52.3333,84.09,1,75,12.66,GF,1650113595
Gijang,35.2442,129.2139,53.33,60,99,6.76,KR,1650113595
Sola,-13.8833,167.55,82.24,70,100,3.76,VU,1650113595
Porbandar,21.6422,69.6093,84.45,63,0,12.84,IN,1650113595
Troitskoye,52.9821,84.6757,59.23,40,5,5.68,RU,1650113596
Santa Fe,-31.6333,-60.7,66.02,61,30,1.99,AR,1650113339
Yafran,32.0633,12.5286,66.67,45,27,19.77,LY,1650113596
Wewak,-3.5534,143.6268,80.64,79,10,3.83,PG,1650113596
Marystown,47.1666,-55.1483,40.86,100,100,15.99,CA,1650113596
Oshikango,-17.4,15.8833,86.09,31,100,4.5,NA,1650113596
Betim,-19.9678,-44.1983,72.84,55,0,3.44,BR,1650113596
Terrace Bay,48.7834,-87.1,17.67,76,100,12.03,CA,1650113597
Nioro,13.35,-15.75,97.77,12,11,7.74,GM,1650113597
San Fernando del Valle de Catamarca,-28.4696,-65.7852,62.78,62,0,1.99,AR,1650113597
Banda Aceh,5.5577,95.3222,82.15,77,19,3.18,ID,1650113597
Rodolfo Sánchez Taboada,31.7167,-116.5667,53.1,86,100,3.0,MX,1650113597
Gibara,21.1097,-76.1317,78.12,78,100,13.22,CU,1650113597
Bilma,18.6853,12.9164,105.17,7,81,10.49,NE,1650113597
Mēga,4.05,38.3,69.35,61,89,3.62,ET,1650113597
Mahon,39.8885,4.2658,72.16,49,0,20.71,ES,1650113598
Suntar,62.1444,117.6319,19.27,94,94,2.57,RU,1650113594
Nouadhibou,20.931,-17.0347,66.18,82,75,14.97,MR,1650113598
Santarém,-2.4431,-54.7083,75.33,100,75,3.44,BR,1650113598
Worthington,40.0931,-83.018,53.55,90,100,9.22,US,1650113598
Labuhan,-6.8844,112.2051,82.15,74,34,2.82,ID,1650113599
Birjand,32.8663,59.2211,84.67,10,20,13.8,IR,1650113599
Lagoa,39.05,-27.9833,58.73,70,95,0.81,PT,1650113599
Requena,39.4883,-1.1004,73.53,28,4,4.76,ES,1650113599
Meulaboh,4.1363,96.1285,81.21,79,24,1.74,ID,1650113599
Saint-François,46.4154,3.9054,70.68,40,0,11.5,FR,1650113599
Coquimbo,-29.9533,-71.3436,58.71,76,0,1.41,CL,1650113599
Nālūt,30.3333,10.85,72.45,30,100,8.99,LY,1650113600
Jos,9.9167,8.9,89.53,32,100,3.67,NG,1650113600
Tàrrega,41.647,1.1396,80.15,41,0,7.9,ES,1650113600
Nhulunbuy,-12.2333,136.7667,75.81,94,75,8.05,AU,1650113600
Lorengau,-2.0226,147.2712,81.36,80,83,5.06,PG,1650113600
Karwar,14.8,74.1333,83.05,71,22,4.12,IN,1650113600
Vila Franca do Campo,37.7167,-25.4333,66.61,74,100,4.03,PT,1650113601
Flinders,-34.5833,150.8552,62.19,87,6,4.0,AU,1650113601
Buraidah,26.326,43.975,91.85,12,0,11.21,SA,1650113562
Somerset West,-34.084,18.8211,75.58,36,0,14.5,ZA,1650113601
Apatity,67.5641,33.4031,35.91,79,100,6.73,RU,1650113601
Agadez,19.75,10.25,101.41,6,22,14.2,NE,1650113601
Hazorasp,41.3194,61.0742,73.24,28,100,18.12,UZ,1650113601
Uporovo,56.3109,66.2693,46.4,71,79,15.1,RU,1650113602
Nishihara,26.1842,127.7558,67.28,64,75,12.66,JP,1650113602
Lewistown,40.5992,-77.5714,58.87,90,20,8.05,US,1650113602
Belluno,46.145,12.2214,65.97,54,98,7.0,IT,1650113334
Marzuq,14.4,46.4667,90.66,15,1,13.62,YE,1650113602
Vardø,70.3705,31.1107,36.28,74,100,14.18,NO,1650113602
Sibolga,1.7427,98.7792,79.5,86,100,2.75,ID,1650113602
Pacific Grove,36.6177,-121.9166,55.65,92,100,20.0,US,1650113602
Del Rio,29.3627,-100.8968,72.0,89,100,8.05,US,1650113603
Port-Gentil,-0.7193,8.7815,87.76,70,40,11.5,GA,1650113603
Den Helder,52.9599,4.7593,60.94,61,100,15.01,NL,1650113310
Peachland,49.7665,-119.7357,33.19,73,25,1.66,CA,1650113603
Vagay,57.9375,69.0217,49.33,70,94,12.59,RU,1650113603
Olinda,-8.0089,-34.8553,87.53,66,75,8.05,BR,1650113589
Emirdağ,39.0197,31.15,67.84,26,100,4.05,TR,1650113603
Pahrump,36.2083,-115.9839,61.25,35,67,10.0,US,1650113603
Tombouctou,20.0,-3.0,90.75,8,0,15.43,ML,1650113591
Oktyabr'skiy,54.4815,53.471,42.58,58,27,5.19,RU,1650113604
Great Yarmouth,52.6083,1.7305,63.07,78,10,12.86,GB,1650113604
Tanout,14.9709,8.8879,102.16,13,10,13.67,NE,1650113604
Paragould,36.0584,-90.4973,55.18,92,100,15.43,US,1650113604
Tokur,53.1333,132.9,19.45,91,100,6.73,RU,1650113604
Itoman,26.1247,127.6694,68.02,62,40,12.66,JP,1650113604
Grindavik,63.8424,-22.4338,49.95,100,100,13.8,IS,1650113604
Bodden Town,19.2833,-81.25,82.0,76,20,4.0,KY,1650113605
Pekan,3.4836,103.3996,78.91,86,92,4.43,MY,1650113605
Barra de Tecoanapa,16.5167,-98.75,78.33,65,57,3.53,MX,1650113605
Galveston,29.3669,-94.9669,76.03,93,100,11.5,US,1650113605
Hamilton,39.1834,-84.5333,55.09,86,100,1.01,US,1650113605
Shubarshi,48.5872,57.1869,58.96,47,84,13.11,KZ,1650113605
Petropavlovsk-Kamchatskiy,53.0452,158.6483,25.39,74,0,6.71,RU,1650113605
San Patricio,28.017,-97.5169,75.83,93,98,9.51,US,1650113606
Krasnooktyabrskiy,44.9328,38.3712,63.95,46,21,6.02,RU,1650113606
Pitimbu,-7.4706,-34.8086,84.79,70,32,11.1,BR,1650113606
Poso,-1.3959,120.7524,77.86,89,97,2.24,ID,1650113606
Port Hardy,50.6996,-127.4199,41.0,93,20,3.44,CA,1650113606
Bathsheba,13.2167,-59.5167,83.01,69,40,23.02,BB,1650113606
São João da Barra,-21.6403,-41.0511,73.49,62,2,11.88,BR,1650113606
Nuuk,64.1835,-51.7216,23.88,73,0,5.99,GL,1650113607
Sampit,-2.5333,112.95,74.73,95,100,1.88,ID,1650113607
Beringovskiy,63.05,179.3167,30.24,97,100,21.97,RU,1650113607
Tabou,4.423,-7.3528,83.34,74,98,6.51,CI,1650113607
Poconé,-16.2567,-56.6228,80.87,53,6,4.38,BR,1650113607
Borovoy,55.4333,86.0833,47.25,81,53,5.59,RU,1650113607
Qaqortoq,60.7167,-46.0333,32.18,66,1,5.97,GL,1650113607
Buncrana,55.1333,-7.45,56.97,64,100,14.74,IE,1650113608
Chardara,41.2547,67.9692,77.99,31,100,2.51,KZ,1650113608
Price,39.5994,-110.8107,43.86,46,100,2.13,US,1650113608
Maragogi,-9.0122,-35.2225,86.59,65,26,10.47,BR,1650113608
San Andrés,12.5847,-81.7006,80.62,78,20,9.22,CO,1650113608
Whitehorse,60.7161,-135.0538,25.57,62,75,9.22,CA,1650113608
Hanzhong,33.0728,107.0303,52.27,64,100,5.03,CN,1650113608
Papetoai,-17.4961,-149.8729,76.59,70,9,13.38,PF,1650113608
Carupano,10.6678,-63.2585,80.64,72,77,8.39,VE,1650113608
Vasil'yevo,55.836,48.6582,45.27,69,99,6.91,RU,1650113609
Hasaki,35.7333,140.8333,48.6,63,0,14.94,JP,1650113609
College,64.8569,-147.8028,21.52,56,0,3.44,US,1650113609
Datong,40.0936,113.2914,55.24,19,10,5.32,CN,1650113609
Vila Praia de Âncora,41.811,-8.8526,63.1,64,97,9.22,PT,1650113609
Arawa,-6.2132,155.5367,77.43,92,100,0.67,PG,1650113609
St. Marys,30.7305,-81.5465,71.62,95,0,4.61,US,1650113609
Coro,11.4045,-69.6734,81.3,73,19,15.26,VE,1650113609
Rio Grande,-32.035,-52.0986,62.71,59,100,8.77,BR,1650113468
Miles City,46.4083,-105.8406,9.0,93,48,2.13,US,1650113610
Fredericksburg,38.3032,-77.4605,61.92,52,0,11.5,US,1650113610
La Baule-Escoublac,47.2922,-2.364,69.46,52,0,10.36,FR,1650113462
Baykit,61.67,96.37,38.68,99,100,4.32,RU,1650113610
San Cristobal,7.7669,-72.225,68.18,65,100,5.75,VE,1650113610
Korla,41.7597,86.1469,57.92,10,0,9.13,CN,1650113610
Aktas,49.7789,72.9608,73.15,20,90,6.71,KZ,1650113610
Sussex,41.1834,-74.6663,58.28,57,100,7.0,US,1650113610
Berdigestyakh,62.0989,126.6992,7.3,98,63,3.38,RU,1650113610
Srednekolymsk,67.45,153.6833,2.66,99,100,2.93,RU,1650113611
Saldanha,-33.0117,17.9442,77.05,50,0,16.64,ZA,1650113611
Tūkrah,32.5341,20.5791,83.55,27,91,11.34,LY,1650113611
Carmelo,-33.9892,-58.2856,63.91,63,0,5.28,UY,1650113611
Hofn,64.2539,-15.2082,46.38,98,100,9.53,IS,1650113611
Gananoque,44.3334,-76.1661,36.25,94,100,9.01,CA,1650113611
Souillac,-20.5167,57.5167,82.78,65,40,13.8,MU,1650113611
Charters Towers,-20.1,146.2667,68.63,84,3,10.76,AU,1650113612
Tezu,27.9167,96.1667,71.51,79,100,7.25,IN,1650113612
Palana,59.1167,159.9667,13.68,96,96,6.02,RU,1650113612
Kavaratti,10.5669,72.642,84.81,72,30,5.5,IN,1650113612
Hobyo,5.3505,48.5268,85.87,67,34,14.34,SO,1650113612
Ancud,-41.8697,-73.8203,57.22,90,65,4.34,CL,1650113470
Mandalgovi,45.7625,106.2708,40.62,42,98,5.03,MN,1650113612
Karangsembung,-6.8487,108.6422,81.19,80,100,2.42,ID,1650113612
Pattoki,31.0167,73.85,97.86,9,0,3.85,PK,1650113612
Bairiki Village,1.3292,172.9752,78.8,94,75,1.14,KI,1650113613
Kupang,-10.1667,123.5833,79.88,83,70,9.19,ID,1650113613
Āreka,7.0667,37.7,72.63,64,96,3.69,ET,1650113613
Bahawalpur,29.4,71.6833,101.95,4,5,0.78,PK,1650113613
Barcelos,41.5388,-8.6151,74.91,51,80,6.17,PT,1650113613
Tivaouane,14.9515,-16.8129,80.94,26,68,14.81,SN,1650113613
Longyan,25.1072,117.0225,59.74,91,100,2.39,CN,1650113481
Villa María,-32.4075,-63.2402,56.82,81,31,7.05,AR,1650113613
Hyères,43.1167,6.1167,84.49,49,0,6.91,FR,1650113613
Zemio,5.0314,25.1361,89.74,41,94,6.78,CF,1650113614
Mount Gambier,-37.8333,140.7667,58.91,94,100,6.91,AU,1650113614
Ormara,25.2088,64.6357,81.77,84,4,14.45,PK,1650113614
Calvinia,-31.4707,19.776,70.16,30,0,15.1,ZA,1650113564
Kieta,-6.2167,155.6333,79.23,85,100,0.22,PG,1650113614
Karsun,54.1994,46.9827,50.2,65,100,9.86,RU,1650113614
Cururupu,-1.8283,-44.8683,80.69,87,100,1.99,BR,1650113614
Olafsvik,64.8945,-23.7142,44.47,97,100,15.35,IS,1650113614
Kailua,21.4022,-157.7394,73.38,86,75,9.22,US,1650113615
San Vicente,-26.6167,-54.1333,64.02,51,0,1.9,AR,1650113615
Labuan,5.2767,115.2417,80.96,83,20,0.0,MY,1650113615
Nichinan,31.6,131.3667,64.08,56,100,10.09,JP,1650113615
Tsabong,-26.0217,22.401,79.05,40,73,15.52,BW,1650113615
Talavera de la Reina,39.9635,-4.8308,76.84,35,0,3.31,ES,1650113375
High Prairie,55.4334,-116.4858,24.31,72,100,4.36,CA,1650113615
Mana,5.6592,-53.7767,81.84,72,55,11.52,GF,1650113615
Mildura,-34.2,142.15,64.36,48,5,0.0,AU,1650113615
Acapulco de Juárez,16.8634,-99.8901,78.44,66,92,4.14,MX,1650113539
Safaga,26.7292,33.9365,82.35,40,0,10.0,EG,1650113616
Avera,33.194,-82.5271,56.71,91,100,5.79,US,1650113616
Aban,56.67,96.06,44.56,89,100,3.89,RU,1650113616
Baruun-Urt,46.6806,113.2792,46.22,31,100,10.07,MN,1650113616
The Valley,18.217,-63.0578,81.1,78,40,17.27,AI,1650113616
Ola,59.5833,151.2833,14.14,83,10,5.79,RU,1650113616
Sidi Ali,36.0998,0.4206,63.14,60,0,9.6,DZ,1650113616
Gaspé,48.8334,-64.4819,44.82,76,40,14.97,CA,1650113617
Zonguldak,41.25,31.8333,64.63,50,100,6.08,TR,1650113617
Bagaha,27.1,84.0833,95.14,7,0,9.51,IN,1650113617
Port Moresby,-9.4431,147.1797,74.62,94,40,3.44,PG,1650113617
Baharly,38.4362,57.4316,69.94,36,100,6.24,TM,1650113617
Mindelo,16.8901,-24.9804,70.56,71,11,13.56,CV,1650113617
Tocopilla,-22.092,-70.1979,65.77,61,9,8.14,CL,1650113617
Nova Viçosa,-17.8919,-39.3719,76.87,77,100,13.13,BR,1650113617
Hammerfest,70.6634,23.6821,37.85,87,75,18.41,NO,1650113618
Xunchang,28.4543,104.715,50.2,92,100,0.83,CN,1650113618
Ucluelet,48.9329,-125.5528,36.09,90,100,3.18,CA,1650113618
Pāsighāt,28.0667,95.3333,69.26,91,18,7.4,IN,1650113618
Neiafu,-18.65,-173.9833,75.88,94,40,0.0,TO,1650113618
Brasília de Minas,-16.2064,-44.4333,79.93,61,66,8.5,BR,1650113618
Peterborough,52.5736,-0.2478,68.56,59,65,8.99,GB,1650113432
Almeirim,-1.5233,-52.5817,82.4,70,41,4.43,BR,1650113618
Río Gallegos,-51.6226,-69.2181,37.45,93,40,5.75,AR,1650113618
